{
  "home": {
    "name": "Home — 526 Grosvenor St",
    "address": "526 Grosvenor St, London, ON N6A 1Y4",
    "lat": 43.0058,
    "lon": -81.2681,
    "category": "home"
  },
  "locations": [
    {"name":"Reverie","cat":"restaurant","tier":"$$$$","address":"208 Piccadilly St, London, ON","lat":42.9899,"lon":-81.2466,"note":"Tasting menu, ex-Noma chef. (519) 504-5235","drive":"6 min"},
    {"name":"Idlewyld Inn & Spa","cat":"restaurant","tier":"$$$","address":"36 Grand Ave, London, ON","lat":42.9762,"lon":-81.2435,"note":"1878 Victorian mansion. Most romantic room in London. (519) 432-5554","drive":"8 min"},
    {"name":"Garlic's of London","cat":"restaurant","tier":"$$$","address":"481 Richmond St, London, ON","lat":42.9931,"lon":-81.2516,"note":"Since 1992, monthly market menu. (519) 432-4092","drive":"5 min"},
    {"name":"David's Bistro","cat":"restaurant","tier":"$$$","address":"432 Richmond St, London, ON","lat":42.9920,"lon":-81.2514,"note":"French bistro since 1998. (519) 667-0535","drive":"5 min"},
    {"name":"Marienbad","cat":"restaurant","tier":"$$$","address":"122 Carling St, London, ON","lat":42.9900,"lon":-81.2493,"note":"Czech/Hungarian since 1974. (519) 679-9940","drive":"6 min"},
    {"name":"Cintro on Wellington","cat":"restaurant","tier":"$$$$","address":"731 Wellington St, London, ON","lat":42.9786,"lon":-81.2440,"note":"OpenTable Top 100 Canada","drive":"9 min"},
    {"name":"Sagi of Wortley","cat":"restaurant","tier":"$$$","address":"175 Wortley Rd, London, ON","lat":42.9766,"lon":-81.2528,"note":"Asian-fusion small plates. (519) 204-8226","drive":"10 min"},
    {"name":"Black Trumpet","cat":"restaurant","tier":"$$$","address":"523 Richmond St, London, ON","lat":42.9939,"lon":-81.2517,"note":"Fireplace + garden patio","drive":"5 min"},
    {"name":"Yaya's Kitchen","cat":"restaurant","tier":"$$$","address":"630 Dundas St, London, ON","lat":42.9870,"lon":-81.2358,"note":"West African tasting menu via Tock","drive":"7 min"},
    {"name":"The Tasting Room","cat":"restaurant","tier":"$$$","address":"483 Richmond St, London, ON","lat":42.9932,"lon":-81.2516,"note":"Wine bar next to Grand Theatre","drive":"5 min"},
    {"name":"Wortley Roadhouse","cat":"restaurant","tier":"$$","address":"190 Wortley Rd, London, ON","lat":42.9750,"lon":-81.2533,"note":"Live music Sat. (519) 438-5141","drive":"10 min"},
    {"name":"Plant Matter Kitchen","cat":"restaurant","tier":"$$","address":"162 Wortley Rd, London, ON","lat":42.9768,"lon":-81.2528,"note":"Vegan, plant-forward bistro","drive":"10 min"},
    {"name":"La Cucina","cat":"restaurant","tier":"$$","address":"731 Richmond St, London, ON","lat":43.0010,"lon":-81.2566,"note":"Italian, open until 1am","drive":"3 min"},
    {"name":"Lucy's Pizza & Cocktails","cat":"restaurant","tier":"$$","address":"581 Richmond St, London, ON","lat":42.9954,"lon":-81.2521,"note":"DJ after 10pm Fri/Sat","drive":"5 min"},
    {"name":"Los Lobos","cat":"restaurant","tier":"$$","address":"580 Talbot St, London, ON","lat":42.9892,"lon":-81.2518,"note":"Modern Mexican, mezcal flight","drive":"6 min"},
    {"name":"Waldo's on King","cat":"restaurant","tier":"$$$","address":"130 King St, London, ON","lat":42.9852,"lon":-81.2493,"note":"#1 Tripadvisor London","drive":"6 min"},
    {"name":"TG's Addis Ababa","cat":"restaurant","tier":"$$","address":"465 Dundas St, London, ON","lat":42.9881,"lon":-81.2447,"note":"Ethiopian, eat with injera","drive":"7 min"},
    {"name":"Daldongnae K-BBQ","cat":"restaurant","tier":"$$$","address":"737 Richmond St, London, ON","lat":43.0012,"lon":-81.2566,"note":"Korean BBQ. (519) 439-7373","drive":"3 min"},
    {"name":"Anatolia Turkish","cat":"restaurant","tier":"$$","address":"807 Dundas St, London, ON","lat":42.9876,"lon":-81.2310,"note":"Wood-grilled lamb, pide","drive":"7 min"},
    {"name":"Shiki Japanese","cat":"restaurant","tier":"$$","address":"715 Wellington Rd, London, ON","lat":42.9580,"lon":-81.2331,"note":"Since 1987, sushi + hotpot","drive":"13 min"},
    {"name":"The Early Bird","cat":"brunch","tier":"$$","address":"355 Talbot St, London, ON","lat":42.9890,"lon":-81.2519,"note":"Cult brunch, walk-in only","drive":"6 min"},
    {"name":"The River Room","cat":"brunch","tier":"$$$","address":"421 Ridout St N, London, ON","lat":42.9852,"lon":-81.2554,"note":"Inside Museum London, river view","drive":"5 min"},
    {"name":"Craft Farmacy","cat":"brunch","tier":"$$","address":"449 Wharncliffe Rd S, London, ON","lat":42.9742,"lon":-81.2622,"note":"Sunday oysters + brunch","drive":"10 min"},

    {"name":"The Bungalow","cat":"bar","tier":"$$","address":"910 Waterloo St, London, ON","lat":43.0035,"lon":-81.2527,"note":"3 min walk from Grosvenor","drive":"3 min"},
    {"name":"Staff Only Speakeasy","cat":"bar","tier":"$$$","address":"350 Ridout St S, London, ON","lat":42.9776,"lon":-81.2558,"note":"16 seats, reservation only","drive":"10 min"},
    {"name":"1913 Speakeasy","cat":"bar","tier":"$$$","address":"100 Kellogg Lane, London, ON","lat":42.9908,"lon":-81.2206,"note":"Hard Rock Hotel, vinyl DJ, until 1am","drive":"10 min"},
    {"name":"Grace Bodega","cat":"bar","tier":"$$","address":"211 Dundas St, London, ON","lat":42.9876,"lon":-81.2483,"note":"Natural wine bar","drive":"5 min"},
    {"name":"The Church Key","cat":"bar","tier":"$$","address":"476 Richmond St, London, ON","lat":42.9930,"lon":-81.2517,"note":"Craft beer + gastropub","drive":"5 min"},
    {"name":"Holy Diver","cat":"bar","tier":"$$","address":"353 Talbot St, London, ON","lat":42.9889,"lon":-81.2520,"note":"Open till 2am Fri/Sat","drive":"6 min"},
    {"name":"Cantata Lounge","cat":"bar","tier":"$$$","address":"325 Dundas St, London, ON","lat":42.9882,"lon":-81.2467,"note":"Delta Armouries, 1905 building","drive":"6 min"},
    {"name":"Storm Stayed Brewing","cat":"bar","tier":"$$","address":"169 Wharncliffe Rd S, London, ON","lat":42.9787,"lon":-81.2629,"note":"Cozy taproom","drive":"7 min"},
    {"name":"Anderson Craft Ales","cat":"bar","tier":"$$","address":"1030 Elias St, London, ON","lat":42.9850,"lon":-81.2173,"note":"Old East taproom","drive":"8 min"},
    {"name":"Forked River Brewing","cat":"bar","tier":"$$","address":"45 Pacific Ct, London, ON","lat":42.9690,"lon":-81.2008,"note":"Industrial-park taproom","drive":"14 min"},

    {"name":"Mustangs Dessert","cat":"sweet","tier":"$$","address":"276 Wharncliffe Rd N, London, ON","lat":42.9954,"lon":-81.2667,"note":"Open till 1am","drive":"7 min"},
    {"name":"Lokma Pastry","cat":"sweet","tier":"$","address":"487 Hamilton Rd, London, ON","lat":42.9851,"lon":-81.2102,"note":"Open till 1:40am","drive":"10 min"},
    {"name":"Black Walnut Bakery","cat":"sweet","tier":"$$","address":"134 Wortley Rd, London, ON","lat":42.9777,"lon":-81.2528,"note":"Best croissants in London","drive":"10 min"},
    {"name":"Pastry Culture","cat":"sweet","tier":"$$","address":"2175 Richmond St, London, ON","lat":43.0202,"lon":-81.2722,"note":"Classical French patisserie","drive":"10 min"},
    {"name":"Marble Slab Creamery","cat":"sweet","tier":"$","address":"573A Richmond St, London, ON","lat":42.9947,"lon":-81.2519,"note":"Build-your-own till 11:30pm","drive":"5 min"},
    {"name":"Tea Lounge","cat":"sweet","tier":"$$","address":"268 Piccadilly St, London, ON","lat":42.9911,"lon":-81.2486,"note":"Tea service until 8:30pm Sat","drive":"4 min"},

    {"name":"Western Fair Market","cat":"activity","tier":"free","address":"900 King St, London, ON","lat":42.9854,"lon":-81.2207,"note":"Sat 8am-3pm","drive":"8 min"},
    {"name":"Covent Garden Market","cat":"activity","tier":"free","address":"130 King St, London, ON","lat":42.9852,"lon":-81.2493,"note":"Sat 9am-7pm","drive":"6 min"},
    {"name":"Eldon House","cat":"activity","tier":"$","address":"481 Ridout St N, London, ON","lat":42.9874,"lon":-81.2562,"note":"Oldest London house, 1834","drive":"7 min"},
    {"name":"Museum London","cat":"activity","tier":"free","address":"421 Ridout St N, London, ON","lat":42.9851,"lon":-81.2554,"note":"On the Forks of the Thames","drive":"5 min"},
    {"name":"Banting House","cat":"activity","tier":"$","address":"442 Adelaide St N, London, ON","lat":42.9956,"lon":-81.2363,"note":"Where insulin was conceived","drive":"5 min"},
    {"name":"Hyland Cinema","cat":"activity","tier":"$$","address":"240 Wharncliffe Rd S, London, ON","lat":42.9851,"lon":-81.2654,"note":"Indie single-screen art house","drive":"8 min"},
    {"name":"Aeolian Hall","cat":"activity","tier":"$$","address":"795 Dundas St, London, ON","lat":42.9876,"lon":-81.2316,"note":"1882 hall, best small-room acoustics","drive":"8 min"},
    {"name":"London Music Hall","cat":"activity","tier":"$$","address":"185 Queens Ave, London, ON","lat":42.9856,"lon":-81.2474,"note":"Larger venue + Rum Runners","drive":"5 min"},
    {"name":"Grand Theatre","cat":"activity","tier":"$$$","address":"471 Richmond St, London, ON","lat":42.9928,"lon":-81.2515,"note":"Live theatre","drive":"5 min"},
    {"name":"Crock A Doodle Pottery","cat":"activity","tier":"$$","address":"671 Wonderland Rd N, London, ON","lat":43.0052,"lon":-81.2925,"note":"Paint pottery, fired in a week","drive":"11 min"},
    {"name":"BATL Axe Throwing","cat":"activity","tier":"$$","address":"40 Adelaide St N, London, ON","lat":42.9852,"lon":-81.2362,"note":"Coached lanes + bar, Sat to 11pm","drive":"5 min"},
    {"name":"Escapology","cat":"activity","tier":"$$","address":"604 Oxford St E, London, ON","lat":42.9967,"lon":-81.2353,"note":"60-min escape rooms","drive":"9 min"},
    {"name":"Palasad SocialBowl","cat":"activity","tier":"$$","address":"777 Adelaide St N, London, ON","lat":43.0027,"lon":-81.2324,"note":"Bowling + arcade + escape rooms","drive":"6 min"},
    {"name":"Idlewyld Inn Spa","cat":"activity","tier":"$$$$","address":"36 Grand Ave, London, ON","lat":42.9762,"lon":-81.2435,"note":"Couples massage $240. (519) 433-2891","drive":"8 min"},
    {"name":"Float Therapy London","cat":"activity","tier":"$$","address":"642 Maitland St, London, ON","lat":43.0012,"lon":-81.2374,"note":"Sensory deprivation tank, $75-95/pp","drive":"6 min"},
    {"name":"Boler Mountain","cat":"activity","tier":"$$","address":"689 Griffith St, London, ON","lat":42.9610,"lon":-81.3097,"note":"Treetop courses + ziplines","drive":"13 min"},
    {"name":"The Factory @ 100 Kellogg","cat":"activity","tier":"$$","address":"100 Kellogg Lane, London, ON","lat":42.9908,"lon":-81.2206,"note":"Trampolines + ropes + escapes + brewery","drive":"10 min"},
    {"name":"Hume Cronyn Observatory","cat":"activity","tier":"free","address":"1151 Richmond St (Western U), London, ON","lat":43.0090,"lon":-81.2737,"note":"Saturday public nights, free","drive":"5 min"},
    {"name":"Springbank Park","cat":"activity","tier":"free","address":"285 Wonderland Rd S, London, ON","lat":42.9612,"lon":-81.2900,"note":"300-acre Thames park","drive":"12 min"},
    {"name":"Gibbons Park","cat":"activity","tier":"free","address":"16 Grosvenor St, London, ON","lat":43.0042,"lon":-81.2715,"note":"3-min walk from Grosvenor","drive":"3 min"},

    {"name":"Stratford","cat":"daytrip","tier":"$$$","address":"55 Queen St, Stratford, ON","lat":43.3705,"lon":-80.9810,"note":"Festival opens Apr 21 2026","drive":"55-65 min"},
    {"name":"Bayfield (Pioneer Park)","cat":"daytrip","tier":"$$$","address":"Howard St, Bayfield, ON","lat":43.5641,"lon":-81.7053,"note":"Lake Huron sunset","drive":"60-70 min"},
    {"name":"Port Stanley","cat":"daytrip","tier":"$$","address":"216 Joseph St, Port Stanley, ON","lat":42.6622,"lon":-81.2143,"note":"Lake Erie beach village","drive":"40-45 min"},
    {"name":"St. Jacobs Market","cat":"daytrip","tier":"$$","address":"878 Weber St N, Woolwich, ON","lat":43.5346,"lon":-80.5537,"note":"Sat 7am-3:30pm","drive":"75 min"},
    {"name":"Elora Mill","cat":"daytrip","tier":"$$$$","address":"77 Mill St W, Elora, ON","lat":43.6839,"lon":-80.4346,"note":"Restaurant over the falls","drive":"90 min"},
    {"name":"Niagara-on-the-Lake","cat":"daytrip","tier":"$$$$","address":"10 Queen's Parade, NOTL, ON","lat":43.2557,"lon":-79.0712,"note":"Shaw Festival running","drive":"2 hr"},
    {"name":"Quai du Vin Winery","cat":"daytrip","tier":"$","address":"45811 Fruit Ridge Line, St. Thomas, ON","lat":42.7115,"lon":-81.0225,"note":"Family-run since 1972","drive":"25 min"},
    {"name":"Jumbo the Elephant","cat":"daytrip","tier":"free","address":"Talbot St & Wellington St, St. Thomas, ON","lat":42.7807,"lon":-81.2002,"note":"Roadside curiosity","drive":"25 min"}
  ]
}
